<?xml version="1.0" encoding="utf-8" standalone="yes"?>
<gpx version="1.1" creator="GPS Visualizer https://www.gpsvisualizer.com/" xmlns="http://www.topografix.com/GPX/1/1" xmlns:xsi="http://www.w3.org/2001/XMLSchema-instance" xsi:schemaLocation="http://www.topografix.com/GPX/1/1 http://www.topografix.com/GPX/1/1/gpx.xsd">
<wpt lat="22.280915" lon="114.212803">
  <name>1)橋邊躉 (石躉x 2) Bridge-Aside Stone Bases</name>
  <desc> 橋邊躉 (石躉x 2) Bridge-Aside Stone Bases</desc>
</wpt>
<wpt lat="22.2801611" lon="114.2128222">
  <name>2) 卵石躉 (石躉 x 2) Pebble Stone Bases</name>
  <desc>卵石躉 (石躉 x 2) Pebble Stone Bases</desc>
</wpt>
<wpt lat="22.2793115" lon="114.2128511">
  <name>3) 四柱躉 (石躉 x 4) Big-Four Stone Bases</name>
  <desc>四柱躉 (石躉 x 4) Big-Four Stone Bases</desc>
</wpt>
<wpt lat="22.278148" lon="114.212913">
  <name>4) 高矮躉(石躉 x 4) Tall-Short Stone Bases</name>
  <desc>高矮躉(石躉 x 4) Tall-Short Stone Bases</desc>
</wpt>
<wpt lat="22.277805" lon="114.212954">
  <name>5) 路邊躉 (石躉 x 2) Road-Aside Stone Bases</name>
  <desc>路邊躉 (石躉 x 2) Road-Aside Stone Bases</desc>
</wpt>
<wpt lat="22.277446" lon="114.212994">
  <name>6) 孖仔躉 (石躉 x 2) Twin Stone Bases</name>
  <desc>孖仔躉 (石躉 x 2) Twin Stone Bases</desc>
</wpt>
<wpt lat="22.277232" lon="114.212968">
  <name>7) 軍廁躉 (石躉 x 2) Military-Toilet Stone Bases</name>
  <desc>軍廁躉 (石躉 x 2) Military-Toilet Stone Bases</desc>
</wpt>
<wpt lat="22.277" lon="114.213">
  <name>8) 平台躉 (石躉 x 2) Platform Stone Bases</name>
  <desc>平台躉 (石躉 x 2) Platform Stone Bases</desc>
</wpt>
<wpt lat="22.2752361" lon="114.2130972">
  <name>9) 軍灶躉 (石躉 x 2) Military-Stove Stone Bases</name>
  <desc>軍灶躉 (石躉 x 2) Military-Stove Stone Bases</desc>
</wpt>
<wpt lat="22.274754" lon="114.2130576">
  <name>10) 山坡躉 (石躉 x 2) Sloping Stone Bases</name>
  <desc>山坡躉 (石躉 x 2) Sloping Stone Bases</desc>
</wpt>
<wpt lat="22.273631" lon="114.213129">
  <name>11) 馬鞍躉 (石躉 x 2) Saddle Stone Bases </name>
  <desc>馬鞍躉 (石躉 x 2) Saddle Stone Bases</desc>
</wpt>
<wpt lat="22.273183" lon="114.213206">
  <name>12) 坑邊躉 (石躉 x 2) Pit Aside Stone Base</name>
  <desc>坑邊躉 (石躉 x 2) Pit Aside Stone Base</desc>
</wpt>
<wpt lat="22.2730108" lon="114.2131986">
  <name>13) 現形躉 (石躉 x 1) Visible Stone Bases</name>
  <desc>現形躉 (石躉 x 1) Visible Stone Bases</desc>
</wpt>
<wpt lat="22.2729127" lon="114.2132013">
  <name>14) 粉碎躉 (碎石) Crushing Stone Bases </name>
  <desc>粉碎躉 (碎石) Crushing Stone Bases</desc>
</wpt>
<wpt lat="22.271436" lon="114.213242">
  <name>15) 山澗躉 (石躉 x 2) Stream Stone Bases</name>
  <desc>山澗躉 (石躉 x 2) Stream Stone Bases</desc>
</wpt>
<wpt lat="22.270112" lon="114.21336">
  <name>16) 康栢躉 (石躉 x 4) Korn-Park Four Stone Bases #破裂 </name>
  <desc>康栢躉 (石躉 x 4) Korn-Park Four Stone Bases #破裂</desc>
</wpt>
<wpt lat="22.269726" lon="114.213381">
  <name>17) 雙L躉 (石躉 x 2) Double L Stone Bases</name>
  <desc>雙L躉 (石躉 x 2) Double L Stone Bases</desc>
</wpt>
<wpt lat="22.269066" lon="114.213445">
  <name>18) 四破躉 (石躉 x 4) Crush Four Stone Bases #破裂 </name>
  <desc>四破躉 (石躉 x 4) Crush Four Stone Bases #破裂</desc>
</wpt>
<wpt lat="22.268406" lon="114.213445">
  <name>19) 磚梯躉 (石躉 x 2) Brick-Ladders Stone Bases</name>
  <desc>磚梯躉 (石躉 x 2) Brick-Ladders Stone Bases</desc>
</wpt>
<wpt lat="22.2680876" lon="114.2134292">
  <name>20) 單L躉 (石躉 x 1) Single L Stone Base #未有GPS位置</name>
  <desc>單L躉 (石躉 x 1) Single L Stone Base #未有GPS位置</desc>
</wpt>
<wpt lat="22.2678787" lon="114.2134482">
  <name>21) 獨孤躉 (石躉 x 1) Alone-1 Stone Base </name>
  <desc>獨孤躉 (石躉 x 1) Alone-1 Stone Base</desc>
</wpt>
<wpt lat="22.2674689" lon="114.2134682">
  <name>22) 孤獨躉 (石躉 x 1) Alone-2 Stone Base</name>
  <desc>孤獨躉 (石躉 x 1) Alone-2 Stone Base</desc>
</wpt>
<wpt lat="22.2672821" lon="114.2134628">
  <name>23)爛尾躉 (石躉 x 2)Broken Ending Stone Bases  </name>
  <desc>爛尾躉 (石躉 x 2)Broken Ending Stone Bases </desc>
</wpt>
<wpt lat="22.2669781" lon="114.2134886">
  <name>24) 終站躉 (石躉 x 2)Terminal Stone Bases</name>
  <desc>終站躉 (石躉 x 2)Terminal Stone Base</desc>
</wpt>
<wpt lat="22.280234" lon="114.212947">
  <name>22.280234,114.212947</name>
</wpt>
<wpt lat="22.2817533" lon="114.212685">
  <name>1) 水閘控制裝置 </name>
  <desc>水閘控制裝置 </desc>
</wpt>
<wpt lat="22.2803016" lon="114.2130098">
  <name>2) 水塘壩尾遺跡</name>
  <desc>水塘壩尾遺跡</desc>
</wpt>
<wpt lat="22.275237" lon="114.214087">
  <name>3) 老靶場 </name>
  <desc>老靶場 </desc>
</wpt>
<wpt lat="22.2785389" lon="114.2130444">
  <name>4) 紅磚石級(第一組/轉彎)</name>
  <desc>紅磚石級(第一組/轉彎)</desc>
</wpt>
<wpt lat="22.2780556" lon="114.2129222">
  <name>5) 紅磚石級(第二組)</name>
  <desc>紅磚石級(第二組)</desc>
</wpt>
<wpt lat="22.273225" lon="114.2130972">
  <name>6) 吊車坑去水石渠</name>
  <desc>吊車坑去水石渠</desc>
</wpt>
<wpt lat="22.2701389" lon="114.213325">
  <name>7) 紅磚石級(康柏四柱躉旁)</name>
  <desc>紅磚石級(康柏四柱躉旁)</desc>
</wpt>
<wpt lat="22.266674" lon="114.2135639">
  <name>8) 療養院</name>
  <desc>療養院</desc>
</wpt>
<wpt lat="22.26715" lon="114.2145889">
  <name>9) 療養院界石</name>
  <desc>療養院界石</desc>
</wpt>
<wpt lat="22.28019" lon="114.21301">
  <name>1) 幼角鐵孖石礅 </name>
  <desc>幼角鐵孖石礅</desc>
</wpt>
<wpt lat="22.28135" lon="114.2133778">
  <name>2) 多躉小山丘</name>
  <desc>多躉小山丘</desc>
</wpt>
<wpt lat="22.2812583" lon="114.212425">
  <name>3) 石磨平台</name>
  <desc>石磨平台</desc>
</wpt>
<wpt lat="22.2754861" lon="114.2131417">
  <name>4) 羅氏福祿公墓</name>
  <desc>羅氏福祿公墓</desc>
</wpt>
<wpt lat="22.27295" lon="114.2132028">
  <name>5) 疑似人造石台</name>
  <desc>疑似人造石台</desc>
</wpt>
<wpt lat="22.2712611" lon="114.2131139">
  <name>6) 民顯祖之墓(民國二十三)</name>
  <desc> 民顯祖之墓(民國二十三)</desc>
</wpt>
<trk>
  <name>吊車坑</name>
  <trkseg>
    <trkpt lat="22.2730631" lon="114.2131943">
      <time>2022-04-10T07:35:28Z</time>
    </trkpt>
    <trkpt lat="22.2721001" lon="114.2132453">
      <time>2022-04-10T07:37:15Z</time>
    </trkpt>
  </trkseg>
</trk>
<trk>
  <name>吊車路線</name>
  <trkseg>
    <trkpt lat="22.2669408" lon="114.2134913">
      <time>2022-04-10T07:46:47Z</time>
    </trkpt>
    <trkpt lat="22.2843932" lon="114.2124556">
      <time>2022-04-10T08:19:03Z</time>
    </trkpt>
  </trkseg>
</trk>
</gpx>
